[
  {
    "id": 1,
    "location": "North Sicily",
    "imgUrl": "/images/1.jpg",
    "name": "Villa sul Mare",
    "city": "Lentini",
    "province": "Siracusa",
    "seats": 7,
    "bedrooms": 3,
    "bathrooms": 2,
    "pricePerNight": 250,
    "checkIn": "2023-09-11",
    "checkOut": "2023-10-22",
    "villaIdeas": [
      "Pool",
      "Seaview",
      "Large",
      "Family"
    ],
    "experiences": [
      "Cooking experiences",
      "Sicily outdoors",
      "Horseback excursion"
    ]
  },
  {
    "id": 2,
    "location": "East Sicily",
    "imgUrl": "/images/2.jpg",
    "name": "Luxury Oasis",
    "city": "Taormina",
    "province": "Messina",
    "seats": 8,
    "bedrooms": 4,
    "bathrooms": 3,
    "pricePerNight": 320,
    "checkIn": "2023-09-11",
    "checkOut": "2023-09-19",
    "villaIdeas": [
      "Pool",
      "Luxury",
      "Large"
    ],
    "experiences": [
      "Sicily outdoors"
    ]
  },
  {
    "id": 3,
    "location": "South Sicily",
    "imgUrl": "/images/3.jpg",
    "name": "Seaview Paradise",
    "city": "Ragusa",
    "province": "Ragusa",
    "seats": 2,
    "bedrooms": 1,
    "bathrooms": 1,
    "pricePerNight": 130,
    "checkIn": "2023-09-11",
    "checkOut": "2023-09-18",
    "villaIdeas": [
      "Pool",
      "Couples"
    ],
    "experiences": [
      "Cooking experiences"
    ]
  },
  {
    "id": 4,
    "location": "East Sicily",
    "imgUrl": "/images/4.jpg",
    "name": "Family Getaway",
    "city": "Cefalù",
    "province": "Palermo",
    "seats": 2,
    "bedrooms": 1,
    "bathrooms": 1,
    "pricePerNight": 110,
    "checkIn": "2023-09-11",
    "checkOut": "2023-10-27",
    "villaIdeas": [
      "Pool",
      "Couples"
    ],
    "experiences": [
      "Sicily outdoors"
    ]
  },
  {
    "id": 5,
    "location": "North Sicily",
    "imgUrl": "/images/6.jpg",
    "name": "Countryside Retreat",
    "city": "Noto",
    "province": "Siracusa",
    "seats": 4,
    "bedrooms": 2,
    "bathrooms": 1,
    "pricePerNight": 390,
    "checkIn": "2023-09-10",
    "checkOut": "2023-12-22",
    "villaIdeas": [
      "Seaview",
      "Couples",
      "Family"
    ],
    "experiences": [
      "Fantastic garden",
      "Horseback excursion"
    ]
  },
  {
    "id": 6,
    "location": "West Sicily",
    "imgUrl": "/images/6.jpg",
    "name": "Tranquil Retreat",
    "city": "Mazara del Vallo",
    "province": "Trapani",
    "seats": 4,
    "bedrooms": 2,
    "bathrooms": 1,
    "pricePerNight": 220,
    "checkIn": "2023-09-11",
    "checkOut": "2023-09-27",
    "villaIdeas": [
      "Pool",
      "Couples",
      "Family"
    ],
    "experiences": [
      "Sicily outdoors"
    ]
  },
  {
    "id": 7,
    "location": "South Sicily",
    "imgUrl": "/images/7.jpg",
    "name": "Hillside Hideaway",
    "city": "Modica",
    "province": "Ragusa",
    "seats": 6,
    "bedrooms": 3,
    "bathrooms": 2,
    "pricePerNight": 310,
    "checkIn": "2023-09-11",
    "checkOut": "2023-09-22",
    "villaIdeas": [
      "Seaview",
      "Family",
      "Large"
    ],
    "experiences": [
      "Fantastic garden",
      "Horseback excursion"
    ]
  },
  {
    "id": 8,
    "location": "West Sicily",
    "imgUrl": "/images/8.jpg",
    "name": "Cozy Cabin",
    "city": "Castellammare del Golfo",
    "province": "Trapani",
    "seats": 4,
    "bedrooms": 2,
    "bathrooms": 1,
    "pricePerNight": 250,
    "checkIn": "2023-09-21",
    "checkOut": "2023-09-24",
    "villaIdeas": [
      "Couples",
      "Family"
    ],
    "experiences": [
      "Horseback excursion"
    ]
  },
  {
    "id": 9,
    "location": "West Sicily",
    "imgUrl": "/images/1.jpg",
    "name": "Sunny Villa",
    "city": "Palermo",
    "province": "Palermo",
    "seats": 6,
    "bedrooms": 3,
    "bathrooms": 2,
    "pricePerNight": 180,
    "checkIn": "2023-09-11",
    "checkOut": "2023-09-19",
    "villaIdeas": [
      "Luxury",
      "Family",
      "Large",
      "Seaview"
    ],
    "experiences": [
      "Cooking experiences",
      "Fantastic garden"
    ]
  },
  {
    "id": 10,
    "location": "North Sicily",
    "imgUrl": "/images/2.jpg",
    "name": "Seafront Retreat",
    "city": "Cefalù",
    "province": "Palermo",
    "seats": 8,
    "bedrooms": 4,
    "bathrooms": 3,
    "pricePerNight": 350,
    "checkIn": "2023-09-11",
    "checkOut": "2023-10-02",
    "villaIdeas": [
      "Pool",
      "Large",
      "Family",
      "Seaview"
    ],
    "experiences": [
      "Sicily outdoors"
    ]
  },
  {
    "id": 11,
    "location": "East Sicily",
    "imgUrl": "/images/3.jpg",
    "name": "Mountain Hideaway",
    "city": "Taormina",
    "province": "Messina",
    "seats": 4,
    "bedrooms": 2,
    "bathrooms": 1,
    "pricePerNight": 220,
    "checkIn": "2023-09-05",
    "checkOut": "2023-10-12",
    "villaIdeas": [
      "Large",
      "Family"
    ],
    "experiences": [
      "Fantastic garden"
    ]
  },
  {
    "id": 12,
    "location": "South Sicily",
    "imgUrl": "/images/4.jpg",
    "name": "Beachfront Paradise",
    "city": "Syracuse",
    "province": "Syracuse",
    "seats": 2,
    "bedrooms": 1,
    "bathrooms": 2,
    "pricePerNight": 75,
    "checkIn": "2023-09-11",
    "checkOut": "2023-10-25",
    "villaIdeas": [
      "Couples",
      "Family"
    ],
    "experiences": [
      "Horseback excursion"
    ]
  },
  {
    "id": 13,
    "location": "West Sicily",
    "imgUrl": "/images/5.jpg",
    "name": "Rustic Cottage",
    "city": "Marsala",
    "province": "Trapani",
    "seats": 4,
    "bedrooms": 2,
    "bathrooms": 1,
    "pricePerNight": 160,
    "checkIn": "2023-09-01",
    "checkOut": "2023-11-08",
    "villaIdeas": [
      "Pool",
      "Luxury",
      "Family",
      "Couples"
    ],
    "experiences": [
      "Cooking experiences",
      "Fantastic garden"
    ]
  },
  {
    "id": 14,
    "location": "North Sicily",
    "imgUrl": "/images/6.jpg",
    "name": "Hillside Villa",
    "city": "Milazzo",
    "province": "Messina",
    "seats": 8,
    "bedrooms": 4,
    "bathrooms": 3,
    "pricePerNight": 300,
    "checkIn": "2023-09-05",
    "checkOut": "2023-11-22",
    "villaIdeas": [
      "Couples",
      "Family"
    ],
    "experiences": [
      "Sicily outdoors"
    ]
  },
  {
    "id": 15,
    "location": "East Sicily",
    "imgUrl": "/images/7.jpg",
    "name": "Elegant Mansion",
    "city": "Catania",
    "province": "Catania",
    "seats": 10,
    "bedrooms": 5,
    "bathrooms": 4,
    "pricePerNight": 415,
    "checkIn": "2023-09-05",
    "checkOut": "2023-12-12",
    "villaIdeas": [
      "Large",
      "Family"
    ],
    "experiences": [
      "Fantastic garden",
      "Sicily outdoors"
    ]
  },
  {
    "id": 16,
    "location": "South Sicily",
    "imgUrl": "/images/8.jpg",
    "name": "Cozy Cabin",
    "city": "Castellammare del Golfo",
    "province": "Trapani",
    "seats": 4,
    "bedrooms": 2,
    "bathrooms": 1,
    "pricePerNight": 175,
    "checkIn": "2023-09-20",
    "checkOut": "2023-12-27",
    "villaIdeas": [
      "Couples",
      "Family"
    ],
    "experiences": [
      "Horseback excursion"
    ]
  }
]